City_ID,City,Lat,Lng,Max Temp,Humidity,Cloudiness,Wind Speed,Country,Date
0,grytviken,-54.2811,-36.5092,-6.24,78,39,5.3,GS,1718229049
1,hermanus,-34.4187,19.2345,14.19,84,0,0.94,ZA,1718229049
2,qarauyl,48.9451,79.255,13.34,81,80,0.09,KZ,1718229049
3,tommot,58.9564,126.2925,14.49,78,97,0.26,RU,1718229049
4,chapaev,50.2,51.1667,23.26,44,100,4.0,KZ,1718229049
5,bilibino,68.0546,166.4372,13.66,44,1,1.77,RU,1718229049
6,maturin,9.75,-63.1767,27.7,67,100,3.91,VE,1718229045
7,albany,42.6001,-73.9662,23.03,58,100,1.34,US,1718228780
8,port elizabeth,-33.918,25.5701,16.16,75,0,8.75,ZA,1718229049
9,harstad,68.799,16.5293,10.66,98,98,0.89,NO,1718229049
10,acapulco de juarez,16.8634,-99.8901,30.9,70,75,3.6,MX,1718229049
11,santyoku,37.4406,129.1708,22.07,62,96,1.95,KR,1718229049
12,callao,-12.0667,-77.15,24.68,82,100,3.6,PE,1718229049
13,bethel,41.3712,-73.414,24.56,57,100,0.45,US,1718229049
14,bokhan,53.153,103.7714,11.8,91,11,1.73,RU,1718229049
15,blackmans bay,-43.0167,147.3167,2.07,76,78,1.91,AU,1718229049
16,san mariano,7.5,126.0,23.59,95,98,1.01,PH,1718229049
17,thompson,55.7435,-97.8558,20.09,42,75,6.17,CA,1718229049
18,nahan,30.55,77.3,30.07,16,0,2.98,IN,1718229049
19,adamstown,-25.066,-130.1015,20.57,75,61,7.57,PN,1718229049
20,loralai,30.3705,68.598,24.54,21,4,2.24,PK,1718229050
21,papatowai,-46.5619,169.4708,6.76,68,100,3.2,NZ,1718229050
22,waitangi,-43.9535,-176.5597,9.9,96,41,1.79,NZ,1718229050
23,rongelap,11.1635,166.8941,27.94,82,67,10.59,MH,1718229050
24,lebu,-37.6167,-73.65,13.22,93,100,9.03,CL,1718229050
25,chibougamau,49.9168,-74.3659,21.79,49,40,7.2,CA,1718229050
26,edinburgh of the seven seas,-37.0676,-12.3116,12.8,60,22,13.58,SH,1718229050
27,ribeira grande,38.5167,-28.7,21.54,84,73,3.24,PT,1718229050
28,hadibu,12.65,54.0333,27.76,75,12,6.03,YE,1718229050
29,bel ombre,-4.6167,55.4167,25.91,89,75,1.03,SC,1718229050
30,san patricio,28.017,-97.5169,36.05,45,50,5.6,US,1718229050
31,trincomalee,8.5711,81.2335,28.25,76,100,9.68,LK,1718229050
32,puerto ayora,-0.7393,-90.3518,25.98,88,31,2.24,EC,1718228794
33,ushuaia,-54.8,-68.3,-2.19,80,0,2.06,AR,1718228810
34,alaghsas,17.0187,8.0168,31.37,34,95,4.68,NE,1718229050
35,revda,56.801,59.9303,17.09,96,23,2.32,RU,1718229050
36,utrik,11.2278,169.8474,27.99,82,32,9.73,MH,1718229050
37,longyearbyen,78.2186,15.6401,1.91,87,75,9.77,SJ,1718229050
38,banikoara,11.2985,2.4386,27.27,69,7,1.86,BJ,1718229050
39,bamboo flat,11.7,92.7167,28.05,89,40,2.57,IN,1718229050
40,inhambane,-23.865,35.3833,19.25,69,1,2.48,MZ,1718229050
41,anadyr,64.75,177.4833,7.28,75,40,3.0,RU,1718229050
42,alice springs,-23.7,133.8833,8.75,76,0,2.57,AU,1718228851
43,stanley,54.868,-1.6985,9.01,90,20,1.03,GB,1718229050
44,hasaki,35.7333,140.8333,20.22,80,100,1.99,JP,1718229050
45,punta arenas,-53.15,-70.9167,0.06,100,100,7.72,CL,1718228773
46,ilulissat,69.2167,-51.1,1.01,100,100,6.17,GL,1718229051
47,cidreira,-30.1811,-50.2056,18.72,89,8,3.18,BR,1718229051
48,mollendo,-17.0231,-72.0147,16.41,84,77,2.25,PE,1718229051
49,pangai,-19.8,-174.35,26.06,94,75,4.63,TO,1718229051
50,port-aux-francais,-49.35,70.2167,2.17,76,89,16.97,TF,1718229051
51,okhotsk,59.3833,143.3,8.64,79,24,2.38,RU,1718229051
52,nar'yan-mar,67.6713,53.087,13.39,74,64,3.13,RU,1718229051
53,isafjordur,66.0755,-23.124,9.38,73,85,1.39,IS,1718229051
54,santa cruz,-17.8,-63.1667,27.7,69,20,7.2,BO,1718229051
55,cabedelo,-6.9811,-34.8339,26.37,81,78,5.89,BR,1718229051
56,badger,64.8,-147.5333,15.95,81,100,6.69,US,1718229051
57,quellon,-43.1167,-73.6167,10.62,95,100,5.16,CL,1718229051
58,benguela,-12.5763,13.4055,21.81,72,0,1.33,AO,1718229051
59,mount gambier,-37.8333,140.7667,8.25,74,100,1.64,AU,1718229051
60,merizo village,13.2658,144.6691,28.54,90,98,5.7,GU,1718229051
61,tiksi,71.6872,128.8694,5.28,71,82,2.22,RU,1718229051
62,ca mau,9.1769,105.15,27.11,82,70,2.05,VN,1718229051
63,saldanha,-33.0117,17.9442,10.03,87,0,1.13,ZA,1718229051
64,vilcun,-38.65,-72.2333,10.41,91,100,6.5,CL,1718229051
65,jilib,0.4883,42.7854,22.55,91,55,2.27,SO,1718229051
66,broome,42.2506,-75.833,24.15,63,40,0.89,US,1718229051
67,wailua homesteads,22.0669,-159.378,28.24,82,75,6.69,US,1718229051
68,vorgashor,67.5833,63.95,7.67,99,100,1.34,RU,1718229052
69,santana,-0.0583,-51.1817,29.1,84,20,1.54,BR,1718229052
70,ifrane,33.3333,-5.25,14.43,66,29,3.48,MA,1718229052
71,mount isa,-20.7333,139.5,7.87,76,1,2.06,AU,1718229052
72,papao,-17.75,-149.55,27.82,71,18,7.62,PF,1718229052
73,troitsko-pechorsk,62.7084,56.1964,14.36,97,25,1.57,RU,1718229052
74,puerto natales,-51.7236,-72.4875,1.25,86,75,6.69,CL,1718229052
75,kolonia town,6.964,158.206,29.06,84,100,5.14,FM,1718229052
76,guozhen,34.3659,107.359,26.03,37,100,1.92,CN,1718229052
77,kamaishi,39.2667,141.8833,22.01,75,8,2.72,JP,1718229052
78,carnarvon,-24.8667,113.6333,18.24,74,0,6.62,AU,1718229052
79,klyuchi,52.2667,79.1667,14.35,85,99,1.3,RU,1718229052
80,sassnitz,54.5167,13.65,9.89,83,85,6.36,DE,1718229052
81,novodvinsk,64.4165,40.8122,12.86,97,100,1.78,RU,1718229052
82,invercargill,-46.4,168.35,6.12,86,100,1.3,NZ,1718229052
83,lahaina,20.8783,-156.6825,29.58,78,5,4.13,US,1718229052
84,hithadhoo,-0.6,73.0833,28.34,73,72,2.12,MV,1718229052
85,thurso,58.5927,-3.5259,8.25,85,89,1.51,GB,1718229052
86,mount pearl,47.5166,-52.7813,14.07,88,100,4.63,CA,1718228960
87,holualoa,19.6228,-155.9522,25.91,81,40,4.63,US,1718229052
88,macae,-22.3708,-41.7869,24.86,61,0,4.12,BR,1718229009
89,pavlovsk,50.4578,40.1081,21.08,94,98,2.29,RU,1718229052
90,alofi,-19.0595,-169.9187,26.94,78,100,5.66,NU,1718229053
91,lompoc,34.6391,-120.4579,18.8,85,100,3.6,US,1718229053
92,tralee,52.2704,-9.7026,11.45,78,100,2.63,IE,1718229053
93,bredasdorp,-34.5322,20.0403,12.19,89,0,1.46,ZA,1718229053
94,pasighat,28.0667,95.3333,24.56,98,91,1.07,IN,1718229053
95,dunedin,-45.8742,170.5036,8.78,77,100,3.58,NZ,1718228775
96,margaret river,-33.95,115.0667,11.1,78,7,1.66,AU,1718229053
97,masterton,-40.9597,175.6575,7.71,77,100,1.77,NZ,1718229053
98,whitehorse,60.7161,-135.0538,18.78,28,40,6.71,CA,1718229053
99,ust-nera,64.5667,143.2,15.23,47,93,0.64,RU,1718229053
100,ketchikan,55.3422,-131.6461,14.08,62,75,5.14,US,1718229053
101,afaahiti,-17.75,-149.2833,26.93,72,80,6.8,PF,1718229053
102,saguenay,48.4168,-71.0657,24.06,66,75,3.6,CA,1718229010
103,yellowknife,62.456,-114.3525,14.67,56,75,4.63,CA,1718229053
104,olinda,-8.0089,-34.8553,24.85,88,75,8.23,BR,1718229052
105,pangody,65.85,74.4859,13.35,90,99,2.99,RU,1718229053
106,sitka,57.0531,-135.33,11.94,66,20,5.66,US,1718229053
107,iskateley,67.6803,53.1512,13.34,74,66,3.13,RU,1718229053
108,kotka,60.4664,26.9458,11.59,85,30,4.2,FI,1718229053
109,aasiaat,68.7098,-52.8699,0.56,95,100,6.55,GL,1718229053
110,jamestown,42.097,-79.2353,24.18,46,75,4.12,US,1718229053
111,corner brook,48.9667,-57.9484,22.09,75,100,3.52,CA,1718228958
112,pacific grove,36.6177,-121.9166,19.66,85,100,5.66,US,1718229053
113,hawaiian paradise park,19.5933,-154.9731,26.73,77,40,4.63,US,1718229053
114,onega,63.9061,38.1404,9.85,91,93,0.72,RU,1718229053
115,nemuro,43.3236,145.575,13.53,98,95,4.33,JP,1718229053
116,kashmar,35.2383,58.4656,26.71,28,27,3.17,IR,1718229053
117,aksu,41.1231,80.2644,21.33,43,16,0.35,CN,1718229053
118,port lincoln,-34.7333,135.8667,13.42,84,100,4.71,AU,1718229003
119,petropavlovsk-kamchatsky,53.0452,158.6483,9.33,90,75,4.47,RU,1718229054
120,palmer,42.1584,-72.3287,25.23,53,75,2.57,US,1718228937
121,tabou,4.423,-7.3528,25.68,84,51,3.77,CI,1718229054
122,konduga,11.6558,13.4213,29.94,52,20,5.32,NG,1718229054
123,birobidzhan,48.8,132.95,10.46,88,96,1.31,RU,1718229054
124,mbeni,-11.5014,43.3775,23.23,67,57,4.9,KM,1718229054
125,st. john's,47.5649,-52.7093,14.53,88,100,4.63,CA,1718228991
126,ugoofaaru,5.6667,73.0,28.93,76,100,6.92,MV,1718229054
127,vadso,70.0744,29.7487,4.49,87,100,3.6,NO,1718229054
128,selkirk,50.1436,-96.8845,22.3,54,8,1.34,CA,1718228923
129,huarmey,-10.0681,-78.1522,19.93,78,100,5.03,PE,1718229054
130,white rock,49.0164,-122.8026,19.97,66,1,2.06,CA,1718228982
131,port mathurin,-19.6833,63.4167,23.98,73,100,12.11,MU,1718229054
132,akureyri,65.6835,-18.0878,13.96,58,0,2.57,IS,1718229054
133,hanover,52.3705,9.7332,11.06,91,75,1.54,DE,1718228374
134,salacgriva,57.7536,24.3581,11.51,87,17,3.12,LV,1718229054
135,luwuk,-0.9516,122.7875,22.75,93,100,2.19,ID,1718229054
136,ghadamis,30.1337,9.5007,37.31,8,1,5.81,LY,1718229054
137,san julian,21.0167,-102.1667,32.66,12,10,7.93,MX,1718229054
138,xinzhou,38.4092,112.7333,21.17,50,16,0.51,CN,1718229054
139,kapuskasing,49.4169,-82.4331,26.05,38,75,10.29,CA,1718228941
140,susuman,62.7833,148.1667,12.21,39,48,0.89,RU,1718229054
141,avarua,-21.2078,-159.775,25.03,73,75,4.63,CK,1718229054
142,karratha,-20.7377,116.8463,19.52,64,10,2.67,AU,1718229054
143,arica,-18.475,-70.3042,22.75,72,0,2.57,CL,1718228432
144,bawshar,23.5556,58.3989,37.65,15,0,3.09,OM,1718229054
145,praia da vitoria,38.7333,-27.0667,22.14,78,75,3.92,PT,1718229054
146,sao joaquim da barra,-20.5814,-47.8547,20.75,34,0,1.59,BR,1718228977
147,prairie du chien,43.0517,-91.1412,19.05,88,100,0.0,US,1718229054
148,sidi ifni,29.3797,-10.173,18.37,89,100,5.34,MA,1718229055
149,mhamid,29.82,-5.72,31.58,11,96,2.71,MA,1718229055
150,nova xavantina,-14.6667,-52.35,24.34,45,0,0.49,BR,1718229055
151,severodvinsk,64.5635,39.8302,13.06,96,92,2.65,RU,1718229055
152,dalandzadgad,43.5708,104.425,13.27,56,21,3.49,MN,1718229055
153,minas de marcona,-15.2119,-75.1103,16.02,64,13,4.89,PE,1718229055
154,labytnangi,66.6572,66.4183,11.32,90,5,2.5,RU,1718229055
155,touros,-5.1989,-35.4608,25.71,75,98,6.25,BR,1718229055
156,haiku-pauwela,20.9219,-156.3051,28.43,70,40,11.83,US,1718229055
157,kodiak,57.79,-152.4072,9.73,76,100,6.69,US,1718229055
158,arraial do cabo,-22.9661,-42.0278,22.92,88,0,7.72,BR,1718229055
159,burang,30.25,81.1667,3.87,58,10,1.36,CN,1718229055
160,imbituba,-28.24,-48.6703,22.7,85,1,3.53,BR,1718229055
161,weno,7.4515,151.8468,24.97,100,100,2.57,FM,1718229055
162,tangalle,6.024,80.7911,27.09,88,100,5.35,LK,1718228992
163,fang,19.9169,99.2145,22.94,98,100,1.02,TH,1718229055
164,talnakh,69.4865,88.3972,8.45,59,61,2.0,RU,1718229055
165,dudinka,69.4058,86.1778,8.71,53,93,3.13,RU,1718229055
166,mitsamiouli,-11.3847,43.2844,26.18,69,43,7.57,KM,1718229055
167,caleta de carquin,-11.0925,-77.6267,19.08,80,89,4.91,PE,1718229055
168,arauca,7.0847,-70.7591,24.98,94,75,1.03,CO,1718228953
169,sola,-13.8833,167.55,28.37,79,75,0.0,VU,1718229055
170,firuzabad,28.8438,52.5707,25.43,20,0,2.47,IR,1718229055
171,bouafle,6.9904,-5.7442,26.01,84,96,3.02,CI,1718229055
172,la'ie,21.6477,-157.9253,28.03,78,11,4.02,US,1718228818
173,sucre,-19.0333,-65.2627,17.3,40,100,1.93,BO,1718229056
174,lahoysk,54.2016,27.8503,11.0,89,2,2.8,BY,1718229056
175,cukai,4.25,103.4167,23.97,93,60,1.61,MY,1718229056
176,seka,17.9285,103.9552,25.1,86,100,2.96,TH,1718229056
177,jerome,42.7241,-114.5186,27.71,17,0,4.63,US,1718229056
178,iqaluit,63.7506,-68.5145,0.85,80,100,3.6,CA,1718228919
179,hilo,19.7297,-155.09,26.85,80,40,4.63,US,1718229056
180,serafimovskiy,54.4241,53.7964,19.53,76,66,2.36,RU,1718229056
181,igrim,63.1906,64.4162,13.91,96,65,0.29,RU,1718229056
182,hastings,50.8552,0.5729,12.94,74,20,3.69,GB,1718229056
183,la passe,45.5549,-0.8967,16.1,80,0,3.24,FR,1718229056
184,west island,-12.1568,96.8225,26.99,89,75,6.17,CC,1718229056
185,al jaradiyah,16.5795,42.9124,32.72,67,0,3.01,SA,1718229056
186,kruisfontein,-34.0033,24.7314,13.82,75,0,3.25,ZA,1718229056
187,fomento,22.1039,-79.7217,33.86,65,100,3.75,CU,1718229056
188,conceicao da barra,-18.5933,-39.7322,21.49,77,0,1.96,BR,1718229056
189,ust'-ilimsk,58.0006,102.6619,15.8,63,39,0.89,RU,1718229056
190,calama,-22.4667,-68.9333,21.27,8,0,8.23,CL,1718229056
191,aykhal,66.0,111.5,19.56,42,67,3.31,RU,1718229056
192,broken hill,-31.95,141.4333,8.33,72,100,2.21,AU,1718229056
193,margate,51.3813,1.3862,12.61,73,93,1.79,GB,1718229057
194,along,28.1667,94.7667,20.7,98,90,0.34,IN,1718229057
195,mejit,10.2753,170.8646,27.71,82,58,10.1,MH,1718229057
196,oranjemund,-28.55,16.4333,12.93,82,0,2.71,NA,1718229057
197,velikiy novgorod,58.5167,31.2833,10.63,84,57,2.26,RU,1718229057
198,banda aceh,5.5577,95.3222,27.23,79,90,4.62,ID,1718229057
199,taoudenni,22.6783,-3.9836,38.46,11,1,6.76,ML,1718229057
200,kingston,17.997,-76.7936,32.53,70,40,9.26,JM,1718228747
201,udachny,66.4167,112.4,20.25,38,50,2.6,RU,1718229057
202,port isabel,26.0734,-97.2086,36.05,68,0,8.23,US,1718229057
203,rumonge,-3.9736,29.4386,22.57,64,6,1.62,BI,1718229057
204,happy valley-goose bay,53.3168,-60.3315,27.17,19,20,5.66,CA,1718229035
205,olonkinbyen,70.9221,-8.7187,0.78,95,100,5.88,SJ,1718229057
206,sonoita,31.85,-112.8333,39.21,8,5,6.52,MX,1718229057
207,chui,-33.6971,-53.4616,20.1,90,100,2.81,UY,1718229057
208,luderitz,-26.6481,15.1594,16.54,56,0,1.93,NA,1718229057
209,sarangani,5.4033,125.4636,28.69,78,77,5.14,PH,1718229057
210,san jose de guanipa,8.8872,-64.1651,27.87,67,85,4.84,VE,1718229057
211,usinsk,65.9939,57.5281,17.26,78,76,4.47,RU,1718229057
212,atafu village,-8.5421,-172.5159,28.9,75,93,3.98,TK,1718229057
213,ola,59.5833,151.2833,12.3,75,84,1.12,RU,1718229057
214,balkanabat,39.5108,54.3671,30.57,35,81,1.84,TM,1718229058
215,suwayr,30.1171,40.3893,31.52,12,0,4.39,SA,1718229058
216,kavaratti,10.5669,72.642,28.49,83,100,6.08,IN,1718229058
217,kenora,49.8167,-94.4337,21.54,46,40,3.09,CA,1718229058
218,nadym,65.5333,72.5167,14.98,81,98,1.37,RU,1718229058
219,biloela,-24.4167,150.5,11.7,65,0,4.85,AU,1718229058
220,east london,-33.0153,27.9116,16.45,62,0,4.51,ZA,1718229058
221,saudarkrokur,65.7461,-19.6394,12.35,63,10,0.86,IS,1718229058
222,buka,40.8108,69.1986,22.24,31,27,2.38,UZ,1718229058
223,forecariah,9.4306,-13.0881,25.82,91,100,1.44,GN,1718229058
224,tromso,69.6496,18.957,8.01,93,100,4.12,NO,1718228888
225,greenville,35.6127,-77.3663,30.09,43,40,3.6,US,1718228422
226,sabang,5.8933,95.3214,29.54,73,82,7.69,ID,1718229058
227,tofol,5.3248,163.0078,28.55,76,100,4.06,FM,1718229058
228,ancud,-41.8697,-73.8203,11.58,85,100,10.13,CL,1718229058
229,san luis,-33.295,-66.3356,16.45,68,100,2.97,AR,1718229033
230,chul'man,56.8479,124.9104,14.11,57,34,0.4,RU,1718229058
231,yuzhno-kurilsk,44.0306,145.8556,12.43,99,98,1.63,RU,1718229058
232,vilyuysk,63.7553,121.6247,15.0,50,70,1.34,RU,1718229058
233,opuwo,-18.0607,13.84,14.4,30,18,3.54,NA,1718229058
234,keflavik,64.0049,-22.5624,11.95,93,100,11.83,IS,1718229058
235,sur,22.5667,59.5289,33.14,48,31,5.91,OM,1718229058
236,coahuayana de hidalgo,18.7,-103.6583,30.87,60,100,3.59,MX,1718229058
237,trzebinia,50.1593,19.4697,11.45,88,78,0.78,PL,1718229059
238,vanimo,-2.6741,141.3028,24.43,97,100,1.42,PG,1718229060
239,lorengau,-2.0226,147.2712,25.49,87,100,1.81,PG,1718229060
240,port blair,11.6667,92.75,28.02,89,40,2.57,IN,1718229060
241,westport,41.1415,-73.3579,25.15,54,40,4.12,US,1718228962
242,macau,22.2006,113.5461,29.89,94,40,4.12,MO,1718228773
243,harare,-17.8294,31.0539,9.34,67,0,2.36,ZW,1718229060
244,aweil,8.7682,27.4002,24.4,82,86,1.78,SS,1718229060
245,sarmiento,-45.5882,-69.07,8.24,71,100,1.37,AR,1718229060
246,nishinoomote,30.7333,131.0,23.51,91,100,6.72,JP,1718229060
247,saipan,15.1355,145.701,29.39,74,40,4.63,MP,1718229060
248,sao jose da coroa grande,-8.8978,-35.1478,25.54,82,77,4.55,BR,1718229060
249,severo-yeniseyskiy,60.3725,93.0408,13.65,77,100,0.45,RU,1718229060
250,kenai,60.5544,-151.2583,13.34,68,100,3.6,US,1718229060
251,machico,32.7,-16.7667,20.56,85,40,7.2,PT,1718229060
252,dickinson,29.4608,-95.0513,33.36,74,75,3.6,US,1718229039
253,palikir - national government center,6.9248,158.1611,28.47,84,100,5.14,FM,1718229060
254,nadi,-17.8,177.4167,25.0,78,40,2.57,FJ,1718229060
255,colonia,50.9333,6.95,12.12,74,40,2.57,DE,1718229004
256,chonchi,-42.6128,-73.8092,10.62,94,100,3.77,CL,1718229060
257,maumere,-8.6199,122.2111,24.98,78,89,3.1,ID,1718229060
258,crane,31.3974,-102.3501,34.54,29,0,2.3,US,1718229060
259,laojunmiao,39.8333,97.7333,17.47,37,60,2.89,CN,1718229061
260,thul,28.2403,68.7759,33.81,45,0,4.73,PK,1718229061
261,selfoss,63.9331,-20.9971,11.14,70,100,7.64,IS,1718229061
262,kuloy,61.0305,42.4925,16.16,95,94,1.42,RU,1718229061
263,georgetown,5.4112,100.3354,27.96,89,20,1.03,MY,1718228884
264,kolonia,50.9333,6.95,12.12,74,40,2.57,DE,1718229061
265,chishmy,54.5765,55.3764,22.11,87,18,2.3,RU,1718229061
266,klaksvik,62.2266,-6.589,9.51,80,37,0.32,FO,1718229061
267,kimhae,35.2342,128.8811,20.97,83,0,0.51,KR,1718229061
268,vellanur,13.1544,80.0992,27.05,88,75,1.54,IN,1718229061
269,lazaro cardenas,17.9583,-102.2,29.23,64,100,3.92,MX,1718229061
270,beloyarskiy,63.7119,66.6722,15.0,94,74,3.58,RU,1718228849
271,kesan,40.8558,26.6303,22.54,68,30,1.2,TR,1718229061
272,flying fish cove,-10.4217,105.6791,25.82,88,100,4.63,CX,1718229061
273,phan rang-thap cham,11.5667,108.9833,26.62,77,66,1.2,VN,1718229061
274,bardai,11.65,7.2333,28.16,50,14,2.81,NG,1718229061
275,ust-tsilma,65.441,52.1498,14.23,73,88,1.79,RU,1718229061
276,zaltan,32.947,11.8665,23.95,81,98,5.25,LY,1718229061
277,san antonio oeste,-40.7319,-64.9477,14.96,55,100,4.48,AR,1718229026
278,muroto-misakicho,33.2833,134.15,22.27,85,91,3.59,JP,1718229061
279,kill devil hills,36.0307,-75.676,24.43,64,0,4.12,US,1718229062
280,tartouss,34.889,35.8866,25.57,70,0,1.48,SY,1718229062
281,mirny,62.5353,113.9611,14.57,74,48,2.24,RU,1718229062
282,vereshchagino,58.0789,54.6557,18.76,91,0,3.13,RU,1718229062
283,egilsstadir,65.2653,-14.3948,11.95,58,0,7.2,IS,1718229062
284,fort bragg,35.139,-79.006,31.01,44,20,2.06,US,1718229062
285,markovo,57.3206,107.0881,13.64,90,72,1.04,RU,1718229062
286,south hedland,-20.4089,118.5983,14.96,55,2,2.06,AU,1718229062
287,iranshahr,27.2025,60.6848,37.19,18,0,3.09,IR,1718229057
288,nizhneangarsk,55.7833,109.55,6.67,95,100,1.79,RU,1718229062
289,ghormach,35.7306,63.7826,27.87,22,0,2.7,AF,1718229062
290,balabac,7.9868,117.0645,27.81,77,99,2.5,PH,1718229062
291,saint-philippe,-21.3585,55.7679,21.77,82,100,8.47,RE,1718229062
292,barjala,23.6167,91.3667,25.7,95,97,3.31,IN,1718229062
293,kirakira,-10.4544,161.9205,28.0,81,86,1.49,SB,1718229062
294,silifke,36.3778,33.9344,28.42,53,0,3.75,TR,1718229062
295,uturoa,-16.7333,-151.4333,25.92,66,21,7.97,PF,1718229063
296,la libertad,-2.2333,-80.9,24.81,78,75,3.6,EC,1718229063
297,abatskoye,56.2875,70.4555,14.58,72,38,1.37,RU,1718229063
298,kalmunai,7.4167,81.8167,27.21,77,100,3.05,LK,1718229063
299,kerikeri,-35.2268,173.9474,12.73,94,100,3.9,NZ,1718229063
300,hamilton,39.1834,-84.5333,29.44,37,0,3.09,US,1718229063
301,fort mcmurray,56.7268,-111.381,18.77,63,100,4.12,CA,1718229063
302,luga,58.7372,29.8453,9.8,85,75,0.76,RU,1718229063
303,sakakah,29.9697,40.2064,31.76,12,0,4.88,SA,1718229063
304,qarqin,37.4185,66.0436,31.0,23,17,4.11,AF,1718229063
305,zakamensk,50.3741,103.2863,7.71,83,21,1.33,RU,1718229063
306,sandersville,32.9815,-82.8101,32.82,44,100,0.89,US,1718229063
307,vila franca do campo,37.7167,-25.4333,19.23,99,23,1.86,PT,1718229063
308,grantsville,40.5999,-112.4644,36.59,26,0,5.66,US,1718229032
309,guerrero negro,27.9769,-114.0611,22.25,59,0,8.7,MX,1718229063
310,novyy urgal,51.0736,132.5642,12.46,67,6,1.62,RU,1718229063
311,qui nhon,13.7667,109.2333,27.41,74,58,1.92,VN,1718229063
312,soure,-0.7167,-48.5233,26.67,81,99,2.79,BR,1718228895
313,tual,-5.6667,132.75,26.36,78,100,8.39,ID,1718229063
314,freetown,8.484,-13.2299,26.23,86,100,2.9,SL,1718229063
315,malindi,-3.2175,40.1191,25.8,70,18,8.29,KE,1718229063
316,college,64.8569,-147.8028,15.99,82,75,6.69,US,1718229007
317,pangkalanbuun,-2.6833,111.6167,22.92,99,100,0.74,ID,1718229064
318,pimenta bueno,-11.6725,-61.1936,25.6,48,28,1.27,BR,1718229064
319,gordonvale,-17.0936,145.7842,15.88,63,46,1.18,AU,1718229064
320,itaituba,-4.2761,-55.9836,32.09,62,40,1.03,BR,1718229064
321,cabo san lucas,22.8909,-109.9124,30.34,59,6,1.79,MX,1718229026
322,rawson,-43.3002,-65.1023,14.09,60,100,3.42,AR,1718228873
323,larne,54.85,-5.8167,10.98,88,100,4.13,GB,1718229064
324,acarau,-2.8856,-40.12,25.34,87,57,5.28,BR,1718229064
325,grand falls-windsor,48.9332,-55.6649,14.54,90,100,4.06,CA,1718229064
326,katabu,-4.9333,122.5167,23.06,92,79,1.25,ID,1718229064
327,lerwick,60.1545,-1.1494,8.0,84,100,2.61,GB,1718229064
328,ma'an,26.9775,110.7211,23.3,94,4,1.89,CN,1718229064
329,gargalianoi,37.0667,21.6333,26.31,39,85,1.31,GR,1718229064
330,hafar al-batin,28.4328,45.9708,36.32,15,0,3.09,SA,1718229064
331,muynoq,43.7683,59.0214,24.19,49,100,5.03,UZ,1718229064
332,tazovsky,67.4667,78.7,7.74,99,97,2.34,RU,1718229064
333,trairi,-3.2778,-39.2689,24.76,89,82,4.22,BR,1718228834
334,uyuni,-20.4597,-66.825,7.02,26,97,3.53,BO,1718229064
335,kribi,2.95,9.9167,26.0,90,38,2.88,CM,1718229064
336,salinopolis,-0.6136,-47.3561,26.01,86,96,4.61,BR,1718229064
337,antofagasta,-23.65,-70.4,16.6,84,10,2.12,CL,1718229064
338,morehead city,34.7229,-76.726,29.03,64,0,4.12,US,1718229065
339,san pedro pochutla,15.7333,-96.4667,30.67,60,96,3.41,MX,1718229065
340,nova vicosa,-17.8919,-39.3719,23.42,75,5,3.04,BR,1718229065
341,lagkadas,40.75,23.0667,29.3,58,78,1.2,GR,1718229065
342,naze,28.3667,129.4833,22.51,94,100,4.24,JP,1718229065
343,alliance,40.9153,-81.1059,27.12,50,0,2.21,US,1718229065
344,palimanan,-6.7069,108.4242,24.82,85,81,1.41,ID,1718229065
345,ta`u,-14.2336,-169.5144,27.83,83,99,7.85,AS,1718229065
346,igarka,67.4667,86.5833,7.79,64,100,2.68,RU,1718229065
347,coquimbo,-29.9533,-71.3436,15.85,79,75,4.63,CL,1718228938
348,tra vinh,9.9347,106.3453,25.87,89,33,1.95,VN,1718229065
349,ko pha ngan,9.7578,100.0291,26.2,76,75,7.0,TH,1718229065
350,borzya,50.3833,116.5167,11.65,85,70,6.16,RU,1718229065
351,lihue,21.9789,-159.3672,28.58,78,75,6.69,US,1718229065
352,tsiroanomandidy,-18.7667,46.0333,15.69,78,6,0.74,MG,1718229065
353,fonseca,10.8861,-72.8487,28.58,81,84,0.32,CO,1718229065
354,tolanaro,-25.0319,46.9987,20.04,94,75,5.14,MG,1718229065
355,alesund,62.4723,6.1549,11.53,86,75,7.2,NO,1718229065
356,arvayheer,46.2639,102.775,7.97,81,88,1.89,MN,1718229065
357,dalbandin,28.8947,64.4101,30.8,10,0,1.84,PK,1718229065
358,port hedland,-20.3167,118.5667,15.03,55,1,2.06,AU,1718229065
359,enewetak,11.3474,162.3373,27.89,83,32,9.14,MH,1718229065
360,thunder bay,48.4001,-89.3168,19.99,73,100,4.12,CA,1718229056
361,harsin,34.2721,47.5861,21.45,37,0,0.73,IR,1718229066
362,tyazhinskiy,56.116,88.524,13.31,86,22,0.88,RU,1718229066
363,cafayate,-26.073,-65.9761,20.56,20,0,0.95,AR,1718229028
364,miquelon,47.0975,-56.3814,10.0,96,100,9.8,PM,1718229066
365,rio grande,-32.035,-52.0986,23.06,85,55,3.78,BR,1718229066
366,mil'kovo,55.6078,37.7956,20.11,93,100,2.31,RU,1718229066
367,leua,48.2156,18.6071,12.24,95,100,1.62,SK,1718229066
368,sydney,-33.8679,151.2073,10.4,64,40,7.2,AU,1718229018
369,tazacorte,28.629,-17.9293,20.54,77,100,7.2,ES,1718229066
370,riachao,-7.3619,-46.6172,26.03,44,35,1.51,BR,1718229066
371,wallenhorst,52.35,8.0167,10.19,78,97,2.31,DE,1718229066
372,cooma,-36.2333,149.1333,2.13,83,81,1.06,AU,1718229066
373,hornell,42.3279,-77.6611,24.0,48,25,3.34,US,1718229066
374,marathon,44.9,-89.7668,23.58,64,0,3.6,US,1718228969
375,barra do garcas,-15.89,-52.2567,29.32,51,20,0.0,BR,1718229066
376,punta del este,-34.9667,-54.95,20.54,97,100,4.92,UY,1718228801
377,chake chake,-5.2459,39.7666,24.38,70,4,4.64,TZ,1718229066
378,qobu,40.4047,49.7131,24.62,55,44,2.42,AZ,1718229066
379,fortuna,40.5982,-124.1573,17.18,78,40,7.2,US,1718229066
380,thyolo,-16.0678,35.1405,10.9,88,0,0.56,MW,1718229066
381,sao tome,0.3365,6.7273,25.98,80,52,2.58,ST,1718229067
382,preston,53.7667,-2.7167,10.0,88,21,1.65,GB,1718229067
383,nova sintra,14.8667,-24.7167,24.1,83,98,8.2,CV,1718229067
384,lensk,60.7253,114.9278,16.9,61,30,0.63,RU,1718228821
385,nelson,-41.2833,173.2833,8.49,90,55,0.17,NZ,1718229054
386,comodoro rivadavia,-45.8667,-67.5,11.92,58,0,1.03,AR,1718228927
387,chikhli,20.35,76.25,26.77,71,40,3.6,IN,1718229067
388,abepura,-2.6333,140.5833,23.45,100,75,1.03,ID,1718229067
389,necochea,-38.5473,-58.7368,15.23,85,100,3.61,AR,1718229048
390,mahina,-17.5065,-149.489,27.87,61,0,3.09,PF,1718229067
391,prince george,53.9166,-122.753,13.69,67,100,3.6,CA,1718229053
392,berdigestyakh,62.0989,126.6992,15.94,47,5,2.59,RU,1718229067
393,queenstown,-31.8976,26.8753,7.13,59,0,0.79,ZA,1718229067
394,sarikei,2.1167,111.5167,23.55,99,100,1.06,MY,1718229067
395,naracoorte,-36.9579,140.7383,7.27,75,100,1.87,AU,1718229067
396,amga,60.8953,131.9608,16.82,61,66,1.96,RU,1718229067
397,lasem,-6.6922,111.4527,24.65,89,100,1.44,ID,1718229068
398,oriximina,-1.7656,-55.8661,27.71,78,91,1.35,BR,1718229068
399,constantia,44.1833,28.65,21.5,82,99,0.9,RO,1718229068
400,sisimiut,66.9395,-53.6735,0.63,93,100,3.15,GL,1718229068
401,ratne,51.6683,24.5303,14.07,62,96,2.94,UA,1718229068
402,ixtapa,20.7,-105.2,30.68,77,88,1.79,MX,1718229068
403,chernyshevskiy,63.0128,112.4714,16.92,55,27,1.61,RU,1718229068
404,remire-montjoly,4.9167,-52.2667,27.02,89,0,2.06,GF,1718229068
405,tura,25.5198,90.2201,24.4,97,100,3.68,IN,1718229068
406,el calafate,-50.3408,-72.2768,0.56,83,50,2.18,AR,1718228936
407,buba,11.5833,-15.0,27.4,79,100,3.73,GW,1718229068
408,baharly,38.4362,57.4316,31.02,28,93,0.31,TM,1718229068
409,thai nguyen,21.5928,105.8442,28.88,91,100,0.43,VN,1718229068
410,omdurman,15.6445,32.4777,35.25,10,6,1.61,SD,1718229068
411,puerto baquerizo moreno,-0.9,-89.6,26.55,61,20,4.12,EC,1718229068
412,mount horeb,43.0086,-89.7385,29.62,63,85,5.34,US,1718229068
413,lambarene,-0.7001,10.2406,23.61,88,67,2.01,GA,1718229068
414,sao vicente,-23.9631,-46.3919,26.75,56,75,1.03,BR,1718229068
415,chizhou,30.6578,117.4831,24.02,91,37,1.01,CN,1718229068
416,pilar,-9.5972,-35.9567,25.96,91,15,1.7,BR,1718229068
417,kirensk,57.7853,108.1119,12.76,91,82,2.24,RU,1718229068
418,joshimath,30.5667,79.5667,15.19,36,0,3.83,IN,1718229068
419,mawlaik,23.6333,94.4167,23.81,99,100,0.7,MM,1718229069
420,khash,28.2211,61.2158,26.74,14,0,1.38,IR,1718229069
421,yulinshi,38.2906,109.7494,25.51,26,52,1.64,CN,1718229069
422,marsa alam,25.0757,34.8918,30.06,38,0,2.88,EG,1718229069
423,ventnor,50.5948,-1.2037,13.57,76,38,3.74,GB,1718229069
424,varzea da palma,-17.5981,-44.7308,21.35,36,0,1.78,BR,1718229069
425,bathsheba,13.2167,-59.5167,30.34,74,40,7.2,BB,1718229069
426,al muwayh,22.4333,41.7583,33.32,15,82,5.62,SA,1718229069
427,fairfield glade,36.0004,-84.8863,27.32,57,40,0.0,US,1718229069
428,howard springs,-12.497,131.047,18.95,91,74,1.81,AU,1718229069
429,yueyang,29.3333,113.0919,24.85,93,66,1.51,CN,1718228844
430,qaqortoq,60.7167,-46.0333,5.72,63,0,11.9,GL,1718229069
431,kropyvnytskyi,48.5132,32.2597,15.07,88,97,5.3,UA,1718229069
432,adam,22.3756,57.5233,29.93,49,5,2.28,OM,1718229069
433,tagaw-bay,35.6994,66.0616,18.63,41,0,1.66,AF,1718229069
434,abalak,58.1286,68.5944,17.97,88,99,1.75,RU,1718229069
435,ouadda,8.0777,22.4007,20.33,92,99,1.65,CF,1718229069
436,vigan,17.5747,120.3869,27.45,86,89,3.24,PH,1718229069
437,ain defla,36.2641,1.9679,18.86,76,0,2.48,DZ,1718229028
438,kuala lipis,4.1842,102.0468,23.0,100,99,0.98,MY,1718229069
439,vytegra,61.0064,36.4481,14.09,88,100,2.68,RU,1718229069
440,camiri,-20.05,-63.5167,28.88,48,40,2.57,BO,1718229069
441,vernal,40.4555,-109.5287,35.62,19,20,6.17,US,1718229070
442,luchegorsk,46.4764,134.2569,11.96,81,6,1.26,RU,1718229070
443,quang ngai,15.1167,108.8,25.53,83,84,2.43,VN,1718229070
444,ilabaya,-17.4208,-70.5133,21.31,35,95,1.08,PE,1718229070
445,zhezqazghan,47.7833,67.7667,17.54,43,5,4.37,KZ,1718229070
446,magadan,59.5667,150.8,11.96,75,80,0.85,RU,1718229070
447,kalianget,-7.05,113.9333,27.0,79,97,3.06,ID,1718229070
448,sault ste. marie,46.5168,-84.3333,27.16,43,0,5.14,CA,1718229042
449,evanston,42.0411,-87.6901,33.95,34,100,5.66,US,1718229020
450,mahibadhoo,3.7833,72.9667,28.63,75,92,5.21,MV,1718229070
451,esbjerg,55.4667,8.45,9.39,90,75,2.24,DK,1718229070
452,alibag,18.6411,72.8792,28.04,80,83,3.15,IN,1718229070
453,santiago de cao,-7.9589,-79.2392,18.07,88,40,4.12,PE,1718229070
454,arteche,12.2645,125.4048,26.81,86,69,1.76,PH,1718229070
455,starobil's'k,49.2783,38.9107,19.04,93,70,3.82,UA,1718229070
456,beira,-19.8436,34.8389,18.05,82,0,0.51,MZ,1718229070
457,kyren,51.6828,102.1408,11.08,71,24,1.34,RU,1718229070
458,kone,-21.0595,164.8658,20.57,63,31,1.57,NC,1718229070
459,boca do acre,-8.7522,-67.3978,29.38,53,100,0.55,BR,1718229070
460,soc trang,9.6033,105.98,26.67,86,37,2.85,VN,1718229070
461,codrington,-38.2667,141.9667,9.43,76,100,1.59,AU,1718229070
462,krasnyy chikoy,50.3643,108.7512,9.01,96,31,1.1,RU,1718229070
463,juan griego,11.0817,-63.9655,27.94,70,97,5.48,VE,1718229071
464,blackwell,36.8045,-97.2828,34.01,38,0,5.66,US,1718228837
465,korla,41.7597,86.1469,23.73,40,72,7.07,CN,1718229071
466,kourou,5.1552,-52.6478,27.03,87,97,2.04,GF,1718228960
467,ouesso,1.6136,16.0517,24.39,72,74,0.18,CG,1718229071
468,riverton,40.5219,-111.9391,36.33,18,77,2.68,US,1718229071
469,slave lake,55.2834,-114.769,11.99,94,100,6.69,CA,1718228953
470,coquimatlan,19.2,-103.8,31.78,52,71,3.61,MX,1718229071
471,port douglas,-16.4833,145.4667,21.35,62,70,1.93,AU,1718229071
472,calamba,14.2117,121.1653,28.97,88,64,1.3,PH,1718229071
473,tapa,59.2606,25.9586,8.38,94,92,2.03,EE,1718229071
474,rabaul,-4.1967,152.1721,26.8,81,93,1.41,PG,1718229071
475,torghay,49.6339,63.4981,19.55,83,96,2.34,KZ,1718229071
476,carolina,18.3808,-65.9574,31.53,76,20,6.69,PR,1718228891
477,kununurra,-15.7667,128.7333,12.99,88,88,0.0,AU,1718229036
478,sotouboua,8.5667,0.9833,27.02,79,31,1.91,TG,1718229071
479,micheweni,-4.9667,39.8333,24.83,71,2,5.78,TZ,1718229071
480,massawa,15.6097,39.45,31.89,46,0,2.6,ER,1718229071
481,kasane,-17.8167,25.15,11.47,55,0,2.55,BW,1718229071
482,xining,36.6167,101.7667,13.33,70,100,1.81,CN,1718229071
483,yeosu,34.7546,127.6599,20.15,74,6,2.04,KR,1718229071
484,pisco,-13.7,-76.2167,18.03,82,20,3.6,PE,1718229071
485,guanica,17.9716,-66.908,32.43,74,49,5.06,PR,1718229071
486,lexington,37.9887,-84.4777,28.0,37,0,2.06,US,1718228991
487,deqen,29.9618,90.7188,9.19,83,85,2.3,CN,1718229072
488,al khawr,25.7667,51.3167,33.57,37,1,4.93,QA,1718229072
489,ashmun,30.2986,30.9764,29.47,51,0,3.05,EG,1718229072
490,solnechnyy,50.7214,136.6319,10.75,70,98,3.69,RU,1718229072
491,ed damer,17.5928,33.9592,34.19,10,0,4.75,SD,1718229072
492,lydenburg,-25.0978,30.4597,7.24,38,0,1.2,ZA,1718229072
493,tonghua,41.7201,125.9219,15.95,94,77,0.45,CN,1718229072
494,vurnary,55.4904,46.9648,18.4,87,96,4.02,RU,1718229072
495,coyhaique,-45.5752,-72.0662,7.34,100,100,1.21,CL,1718229016
496,peace river,56.2501,-117.286,15.17,82,100,3.6,CA,1718229072
497,mandalgovi,45.7625,106.2708,11.26,51,8,5.83,MN,1718229072
498,mitu,1.1983,-70.1733,26.93,85,35,0.74,CO,1718229072
499,kismayo,-0.3582,42.5454,25.79,78,37,7.63,SO,1718229072
500,ain oussera,35.4514,2.9058,21.99,54,6,6.17,DZ,1718229072
501,paradise point,-27.8863,153.3957,13.33,68,0,0.45,AU,1718229072
502,bairnsdale,-37.8333,147.6167,8.92,88,100,1.75,AU,1718228914
503,tropea,38.6754,15.8948,22.61,83,100,1.15,IT,1718229073
504,kapa'a,22.0752,-159.319,28.99,82,75,6.69,US,1718229073
505,capinota,-17.7167,-66.2333,27.67,19,18,2.5,BO,1718229073
506,mount pleasant,32.7941,-79.8626,31.08,71,0,7.2,US,1718228675
507,zalari,53.5584,102.5065,11.15,93,18,2.27,RU,1718229073
508,namibe,-15.1961,12.1522,19.97,71,63,0.91,AO,1718229073
509,whitecourt,54.1502,-115.6855,13.58,71,100,5.66,CA,1718229073
510,talara,-4.5772,-81.2719,24.42,69,40,5.27,PE,1718229073
511,novaya ladoga,60.1025,32.3019,10.23,85,81,2.43,RU,1718229073
512,yantarnyy,54.8717,19.9381,9.92,79,9,2.01,RU,1718229073
513,akita,39.7167,140.1167,20.99,77,2,3.11,JP,1718229073
514,totness,5.8833,-56.3167,25.4,90,100,4.03,SR,1718229073
515,butte,39.6499,-121.5677,39.05,14,0,3.43,US,1718229073
516,usogorsk,63.4106,48.6872,17.04,68,61,2.29,RU,1718229073
517,carolina beach,34.0352,-77.8936,28.9,75,83,5.47,US,1718229073
518,kasongo-lunda,-6.4667,16.8167,20.73,48,25,0.3,CD,1718229073
519,barbastro,42.0356,0.1269,15.3,67,13,2.52,ES,1718229073
520,castillos,-34.1667,-53.8333,19.53,91,100,1.99,UY,1718229073
521,colon,9.3592,-79.9014,29.39,87,97,1.34,PA,1718228875
522,hobyo,5.3505,48.5268,25.95,74,100,12.09,SO,1718229074
523,prado,-17.3411,-39.2208,23.1,78,1,3.48,BR,1718229074
524,guangyuan,32.442,105.823,22.78,77,100,1.02,CN,1718229074
525,eastham,41.8301,-69.9739,23.86,72,0,2.57,US,1718229074
526,mana,5.6592,-53.7767,25.45,90,100,3.98,GF,1718229074
527,vilhena,-12.7406,-60.1458,28.12,44,0,2.57,BR,1718228892
528,amritsar,31.6331,74.8656,32.97,41,0,3.13,IN,1718229074
529,la gi,10.6667,107.7833,26.49,83,78,4.22,VN,1718229074
530,fale old settlement,-9.3852,-171.2468,29.12,75,68,4.12,TK,1718229074
531,lijiang,26.8688,100.2207,15.47,97,100,1.79,CN,1718229074
532,greymouth,-42.4667,171.2,6.17,75,100,3.84,NZ,1718229074
533,lucapa,-8.4192,20.7447,19.43,43,8,1.66,AO,1718229074
534,mukalla,14.5425,49.1242,30.64,66,5,4.0,YE,1718229074
535,senador jose porfirio,-2.5908,-51.9542,27.86,74,100,1.3,BR,1718229074
536,kristiansund,63.1115,7.732,8.03,87,100,5.14,NO,1718229074
537,pansoy,13.1825,122.5989,28.22,75,57,2.24,PH,1718229074
538,waverly,42.7392,-84.6208,29.88,46,20,6.69,US,1718229074
539,shingu,33.7333,135.9833,21.53,88,100,2.61,JP,1718229074
540,ceara mirim,-5.6344,-35.4256,26.38,78,20,2.57,BR,1718229074
541,yenagoa,4.9247,6.2642,24.6,93,70,1.81,NG,1718229075
542,biltine,14.5333,20.9167,34.23,29,71,1.72,TD,1718229075
543,aroma,15.8167,36.1333,32.6,40,75,5.85,SD,1718229075
544,san antonio de pale,-1.4014,5.6325,25.13,79,100,3.8,GQ,1718229075
545,las heras,-46.5419,-68.9359,5.86,81,93,4.44,AR,1718229075
546,chicoana,-25.1009,-65.5331,23.03,60,6,3.11,AR,1718229075
547,arima,10.6333,-61.2833,30.74,66,20,6.17,TT,1718228927
548,arkhangel'sk,64.5401,40.5433,13.06,100,20,0.0,RU,1718229075
549,vilyuchinsk,52.9306,158.4028,10.15,89,99,1.69,RU,1718229075
550,cherdyn',60.403,56.4787,15.71,98,86,2.07,RU,1718229075
551,lethem,3.3803,-59.7968,32.03,62,20,4.12,GY,1718229075
552,prymors'k,46.7348,36.3443,19.18,89,3,5.24,UA,1718229076
553,aomori,40.8244,140.74,24.97,67,8,0.89,JP,1718229076
554,nahiyat ash shinafiyah,31.5874,44.6602,35.07,13,0,3.67,IQ,1718229076
555,bodo,67.28,14.405,10.02,88,40,3.09,NO,1718228943
556,oroqen zizhiqi,50.5667,123.7167,11.97,78,100,0.66,CN,1718229076
557,beyneu,45.3167,55.2,27.81,28,100,5.76,KZ,1718229076
558,gao,16.6362,1.637,34.66,25,79,3.74,ML,1718229076
559,phan thiet,10.9333,108.1,26.13,83,86,3.86,VN,1718229076
560,sierra grande,-41.606,-65.3557,14.82,52,99,8.17,AR,1718228842
561,hillsborough,37.5741,-122.3794,29.21,70,20,5.66,US,1718229076
562,pemangkat,1.1667,108.9667,26.56,86,100,1.72,ID,1718229076
563,andergrove,-21.0833,149.1833,14.16,56,0,7.47,AU,1718229076
564,nuuk,64.1835,-51.7216,3.34,60,20,4.63,GL,1718229076
565,polyarnyy,69.1989,33.4478,5.53,85,100,5.1,RU,1718229076
566,barrouallie,13.2333,-61.2667,27.79,74,20,5.14,VC,1718229076
